- name: Home
  latitude: !secret latitude
  longitude: !secret longitude
  radius: 36
  icon: mdi:home

- name: Enable
  latitude: 52.201502
  longitude: -1.724378
  radius: 50
  icon: mdi:office-building

- name: Moreton Morrell College
  latitude: 52.196800
  longitude: -1.558122
  radius: 600
  icon: mdi:school

- name: Gym
  latitude: 52.224367
  longitude: -1.742777
  radius: 59
  icon: mdi:dumbbell

- name: The Rookery
  latitude: 52.135507
  longitude: -1.612324
  radius: 100
  icon: mdi:horseshoe

- name: Yard
  latitude: 52.193103
  longitude: -1.525862
  radius: 350
  icon: mdi:horseshoe